bag_time_ns,bag_time_sec,header.stamp.sec,header.stamp.nanosec,header.frame_id,raw_count,voltage_mv,force_n
1780471462335970775,1780471462.335970879,1780471462,335598051,load_cell,-10131,-0.04716786427145708,-13.351807339321356
1780471462346350276,1780471462.346350193,1780471462,345572635,load_cell,-9179,-0.04276786427145708,-12.106299339321355
1780471462356542728,1780471462.356542826,1780471462,355767070,load_cell,-11405,-0.053067864271457085,-15.021920339321357
1780471462366043750,1780471462.366043806,1780471462,365809658,load_cell,-6474,-0.03016786427145708,-8.539617339321355
1780471462375981596,1780471462.375981569,1780471462,375574822,load_cell,-7015,-0.03266786427145708,-9.247292339321357
1780471462386181152,1780471462.386181116,1780471462,385582144,load_cell,-2899,-0.013467864271457082,-3.812348339321357
1780471462396097525,1780471462.396097422,1780471462,395582361,load_cell,-1200,-0.005567864271457078,-1.5760953393213555
1780471462405957030,1780471462.405956984,1780471462,405585554,load_cell,-2268,-0.010567864271457082,-2.9914453393213574
1780471462416239727,1780471462.416239738,1780471462,415590796,load_cell,-1287,-0.005967864271457082,-1.6893233393213567
1780471462426046046,1780471462.426046133,1780471462,425687050,load_cell,-8813,-0.041067864271457075,-11.625080339321356
1780471462436212960,1780471462.436213017,1780471462,435586366,load_cell,-8813,-0.041067864271457075,-11.625080339321356
1780471462445925929,1780471462.445925951,1780471462,445583575,load_cell,-11450,-0.05336786427145708,-15.106841339321354
1780471462456326872,1780471462.456326962,1780471462,455662132,load_cell,-13732,-0.06396786427145708,-18.107383339321352
1780471462466220396,1780471462.466220379,1780471462,465579273,load_cell,-11894,-0.05536786427145708,-15.672981339321355
1780471462475961399,1780471462.475961447,1780471462,475589507,load_cell,-11894,-0.05536786427145708,-15.672981339321355
1780471462485899629,1780471462.485899687,1780471462,485584828,load_cell,-8538,-0.03976786427145708,-11.257089339321356
1780471462495980970,1780471462.495980978,1780471462,495585333,load_cell,-8538,-0.03976786427145708,-11.257089339321356
1780471462506378937,1780471462.506378889,1780471462,505687476,load_cell,-17264,-0.08036786427145708,-22.749731339321357
1780471462516939984,1780471462.516939878,1780471462,515592712,load_cell,-2607,-0.01216786427145708,-3.444357339321355
1780471462525909522,1780471462.525909424,1780471462,525597441,load_cell,-7939,-0.03696786427145708,-10.464493339321356
1780471462536032850,1780471462.536032915,1780471462,535593210,load_cell,-1092,-0.005067864271457077,-1.4345603393213544
1780471462546707983,1780471462.546707869,1780471462,545597843,load_cell,-1092,-0.005067864271457077,-1.4345603393213544
1780471462556164779,1780471462.556164742,1780471462,555585804,load_cell,920,0.004332135728542921,1.2262976606786449
1780471462566168805,1780471462.566168785,1780471462,565589765,load_cell,920,0.004332135728542921,1.2262976606786449
1780471462576561331,1780471462.576561213,1780471462,575603839,load_cell,885,0.0041321357285429225,1.1696836606786452
1780471462586414340,1780471462.586414337,1780471462,585593144,load_cell,885,0.0041321357285429225,1.1696836606786452
1780471462596228275,1780471462.596228361,1780471462,595604882,load_cell,-18,-6.786427145707985e-05,-0.019210339321356074
1780471462605935645,1780471462.605935574,1780471462,605594922,load_cell,-1792,-0.008367864271457082,-2.368691339321357
1780471462616583225,1780471462.616583109,1780471462,615593443,load_cell,-10744,-0.05006786427145708,-14.172710339321357
1780471462627231701,1780471462.627231598,1780471462,625635647,load_cell,-10177,-0.047367864271457075,-13.408421339321356
1780471462636155732,1780471462.636155844,1780471462,635594326,load_cell,-865,-0.0040678642714570765,-1.1514903393213558
1780471462646545506,1780471462.646545410,1780471462,645615152,load_cell,-3763,-0.01756786427145708,-4.9729353393213565
1780471462656073410,1780471462.656073332,1780471462,655601545,load_cell,-3763,-0.01756786427145708,-4.9729353393213565
1780471462666214979,1780471462.666214943,1780471462,665630115,load_cell,-6789,-0.03156786427145708,-8.935915339321356
1780471462676457673,1780471462.676457644,1780471462,675622844,load_cell,701,0.003232135728542921,0.9149206606786446
1780471462686240310,1780471462.686240196,1780471462,685648023,load_cell,-3331,-0.015467864271457077,-4.378488339321356
1780471462696564993,1780471462.696564913,1780471462,695605677,load_cell,-3188,-0.01486786427145708,-4.208646339321357
1780471462706011388,1780471462.706011295,1780471462,705603399,load_cell,752,0.0035321357285429227,0.999841660678646
1780471462716304197,1780471462.716304302,1780471462,715596511,load_cell,2234,0.010432135728542923,2.953024660678645
1780471462726173944,1780471462.726173878,1780471462,725605785,load_cell,2234,0.010432135728542923,2.953024660678645
1780471462736564134,1780471462.736564159,1780471462,735602482,load_cell,1903,0.008832135728542922,2.500112660678644
1780471462746078981,1780471462.746078968,1780471462,745604811,load_cell,423,0.001932135728542922,0.5469296606786447
1780471462756239943,1780471462.756239891,1780471462,755602692,load_cell,-3170,-0.014767864271457078,-4.180339339321355
1780471462765942992,1780471462.765943050,1780471462,765592061,load_cell,-4223,-0.01966786427145708,-5.567382339321355
1780471462776000588,1780471462.776000500,1780471462,775616055,load_cell,-13240,-0.06166786427145708,-17.456322339321353
1780471462785947010,1780471462.785947084,1780471462,785596912,load_cell,-6051,-0.02816786427145708,-7.973477339321354
1780471462796032288,1780471462.796032190,1780471462,795610441,load_cell,-15636,-0.07276786427145708,-20.598399339321354
1780471462806210947,1780471462.806210995,1780471462,805635620,load_cell,-7908,-0.03686786427145708,-10.436186339321354
1780471462816130936,1780471462.816130877,1780471462,815601403,load_cell,-3303,-0.015367864271457081,-4.350181339321356
1780471462826739154,1780471462.826739073,1780471462,825607125,load_cell,-4176,-0.01946786427145708,-5.510768339321356
1780471462836069127,1780471462.836069107,1780471462,835624719,load_cell,-2802,-0.013067864271457078,-3.6991203393213556
1780471462846002748,1780471462.846002817,1780471462,845606279,load_cell,-7281,-0.03386786427145708,-9.586976339321355
1780471462856029143,1780471462.856029034,1780471462,855641442,load_cell,-4296,-0.01996786427145708,-5.652303339321357
1780471462866119029,1780471462.866119146,1780471462,865606137,load_cell,-1668,-0.007767864271457078,-2.198849339321356
1780471462876618633,1780471462.876618624,1780471462,875641396,load_cell,-2901,-0.013467864271457082,-3.812348339321357
1780471462886518333,1780471462.886518240,1780471462,885706513,load_cell,-1185,-0.005567864271457078,-1.5760953393213555
1780471462896101728,1780471462.896101713,1780471462,895610053,load_cell,-3234,-0.01506786427145708,-4.265260339321356
1780471462905983474,1780471462.905983448,1780471462,905605502,load_cell,-4706,-0.02186786427145708,-6.190136339321356
1780471462916289436,1780471462.916289330,1780471462,915616248,load_cell,-7514,-0.03496786427145708,-9.898353339321355
1780471462926551139,1780471462.926551104,1780471462,925605296,load_cell,-10255,-0.04776786427145707,-13.521649339321355
1780471462936836908,1780471462.936836958,1780471462,935619114,load_cell,-14913,-0.06946786427145708,-19.664268339321353
1780471462946812932,1780471462.946812868,1780471462,946053467,load_cell,-19967,-0.09296786427145708,-26.316413339321358
1780471462956102327,1780471462.956102371,1780471462,955609212,load_cell,-9730,-0.045267864271457084,-12.813974339321357
1780471462966036844,1780471462.966036797,1780471462,965611957,load_cell,-11222,-0.052267864271457076,-14.795464339321354
1780471462976086248,1780471462.976086140,1780471462,975613039,load_cell,-11464,-0.05336786427145708,-15.106841339321354
1780471462986628062,1780471462.986628056,1780471462,985607944,load_cell,-11939,-0.055567864271457074,-15.729595339321355
1780471462996141341,1780471462.996141434,1780471462,995617121,load_cell,-4128,-0.01926786427145708,-5.454154339321356
1780471463006264285,1780471463.006264210,1780471463,5630843,load_cell,-6998,-0.03256786427145708,-9.218985339321355
1780471463016303769,1780471463.016303778,1780471463,15622772,load_cell,-5412,-0.025167864271457077,-7.124267339321355
1780471463026220429,1780471463.026220322,1780471463,25613645,load_cell,-1520,-0.007067864271457079,-2.000700339321355
1780471463035970329,1780471463.035970211,1780471463,35614534,load_cell,-1681,-0.007867864271457081,-2.227156339321356
1780471463046125467,1780471463.046125412,1780471463,45628320,load_cell,-1038,-0.0048678642714570786,-1.3779463393213565
1780471463056316062,1780471463.056316137,1780471463,55619321,load_cell,-2052,-0.009567864271457081,-2.708375339321357
1780471463066239892,1780471463.066239834,1780471463,65640627,load_cell,-2881,-0.01336786427145708,-3.7840413393213552
1780471463076298384,1780471463.076298475,1780471463,75668014,load_cell,-6851,-0.03186786427145708,-9.020836339321358
1780471463086459794,1780471463.086459875,1780471463,85803247,load_cell,-10412,-0.04846786427145708,-13.719798339321356
1780471463096323716,1780471463.096323729,1780471463,95686082,load_cell,-11671,-0.05436786427145708,-15.389911339321356
1780471463106010988,1780471463.106010914,1780471463,105620856,load_cell,-11496,-0.053567864271457086,-15.163455339321358
1780471463116198864,1780471463.116198778,1780471463,115620561,load_cell,-11197,-0.05216786427145707,-14.767157339321352
1780471463126527355,1780471463.126527309,1780471463,125632651,load_cell,-9963,-0.046367864271457074,-13.125351339321353
1780471463136222884,1780471463.136222839,1780471463,135643781,load_cell,-6253,-0.02916786427145708,-8.256547339321356
1780471463146192219,1780471463.146192312,1780471463,145619037,load_cell,-9537,-0.044367864271457086,-12.559211339321356
1780471463156296090,1780471463.156296015,1780471463,155637783,load_cell,-4848,-0.02256786427145708,-6.388285339321355
1780471463166249745,1780471463.166249752,1780471463,165630320,load_cell,-10205,-0.04756786427145708,-13.465035339321355
1780471463175991388,1780471463.175991297,1780471463,175625705,load_cell,-5843,-0.02716786427145708,-7.6904073393213555
1780471463186247331,1780471463.186247349,1780471463,185626658,load_cell,-4757,-0.02216786427145708,-6.275057339321357
1780471463196504395,1780471463.196504354,1780471463,195626523,load_cell,-5237,-0.024367864271457082,-6.897811339321356
1780471463206079853,1780471463.206079960,1780471463,205624853,load_cell,-4401,-0.02046786427145708,-5.793838339321356
1780471463216788716,1780471463.216788769,1780471463,215634830,load_cell,-7818,-0.03636786427145708,-10.294651339321357
1780471463226205990,1780471463.226206064,1780471463,225628647,load_cell,-6219,-0.028967864271457082,-8.199933339321356
1780471463236054712,1780471463.236054659,1780471463,235626497,load_cell,-9883,-0.04606786427145708,-13.040430339321356
1780471463246481960,1780471463.246481895,1780471463,245689821,load_cell,-10099,-0.04706786427145708,-13.323500339321354
1780471463256452448,1780471463.256452560,1780471463,255633556,load_cell,-14929,-0.06956786427145707,-19.69257533932135
1780471463265936861,1780471463.265936852,1780471463,265631725,load_cell,-16553,-0.07706786427145708,-21.815600339321357
1780471463276718496,1780471463.276718378,1780471463,275647847,load_cell,-11453,-0.05336786427145708,-15.106841339321354
1780471463286073015,1780471463.286072969,1780471463,285629343,load_cell,-10325,-0.04806786427145708,-13.606570339321356
1780471463296557770,1780471463.296557665,1780471463,295646937,load_cell,-6741,-0.03136786427145708,-8.879301339321357
1780471463306355417,1780471463.306355476,1780471463,305629266,load_cell,-4859,-0.022667864271457082,-6.416592339321356
1780471463316210602,1780471463.316210508,1780471463,315643564,load_cell,-3324,-0.015467864271457077,-4.378488339321356
1780471463326132639,1780471463.326132536,1780471463,325634821,load_cell,-3700,-0.01726786427145708,-4.888014339321355
1780471463336144889,1780471463.336144924,1780471463,335668064,load_cell,-2052,-0.009567864271457081,-2.708375339321357
1780471463346432962,1780471463.346432924,1780471463,345684314,load_cell,-1885,-0.00876786427145708,-2.4819193393213563
1780471463356238481,1780471463.356238365,1780471463,355634224,load_cell,-810,-0.0037678642714570817,-1.0665693393213562
1780471463366416596,1780471463.366416693,1780471463,365633802,load_cell,-694,-0.0032678642714570813,-0.9250343393213569
1780471463376280806,1780471463.376280785,1780471463,375637987,load_cell,-1606,-0.007467864271457077,-2.1139283393213546
1780471463385942189,1780471463.385942221,1780471463,385628316,load_cell,-2133,-0.009967864271457079,-2.8216033393213564
1780471463396247799,1780471463.396247864,1780471463,395628629,load_cell,-4503,-0.020967864271457082,-5.935373339321357
1780471463406507390,1780471463.406507492,1780471463,405625582,load_cell,-9081,-0.04226786427145708,-11.964764339321357
1780471463416324045,1780471463.416324139,1780471463,415645705,load_cell,-9646,-0.044967864271457075,-12.729053339321355
1780471463426128956,1780471463.426128864,1780471463,425642626,load_cell,-5956,-0.027767864271457082,-7.860249339321358
1780471463436421125,1780471463.436421156,1780471463,435655100,load_cell,-10065,-0.046867864271457074,-13.266886339321355
1780471463446232980,1780471463.446233034,1780471463,445635924,load_cell,-4132,-0.01926786427145708,-5.454154339321356
1780471463456168298,1780471463.456168413,1780471463,455641230,load_cell,682,0.0031321357285429216,0.8866136606786448
1780471463466012699,1780471463.466012716,1780471463,465652104,load_cell,-6426,-0.029967864271457076,-8.483003339321355
1780471463476129307,1780471463.476129293,1780471463,475697571,load_cell,318,0.0014321357285429215,0.4053946606786436
1780471463486229529,1780471463.486229420,1780471463,485634457,load_cell,-4154,-0.019367864271457078,-5.482461339321356
1780471463496228786,1780471463.496228695,1780471463,495638291,load_cell,-2207,-0.01026786427145708,-2.906524339321356
1780471463506055874,1780471463.506055832,1780471463,505640460,load_cell,-3523,-0.016367864271457082,-4.633251339321356
1780471463516116095,1780471463.516116142,1780471463,515687048,load_cell,-2559,-0.01196786427145708,-3.3877433393213554
1780471463525927694,1780471463.525927782,1780471463,525647583,load_cell,-2750,-0.012767864271457076,-3.6141993393213543
1780471463536120018,1780471463.536119938,1780471463,535669082,load_cell,-3465,-0.016167864271457076,-4.576637339321355
1780471463546373113,1780471463.546373129,1780471463,545661266,load_cell,-6177,-0.028767864271457076,-8.143319339321353
1780471463556128357,1780471463.556128263,1780471463,555656875,load_cell,-6120,-0.02846786427145708,-8.058398339321355
1780471463565986966,1780471463.565986872,1780471463,565640164,load_cell,-4803,-0.02236786427145708,-6.331671339321355
1780471463577606119,1780471463.577606201,1780471463,575651262,load_cell,-9275,-0.04316786427145708,-12.219527339321354
1780471463586980862,1780471463.586980820,1780471463,586105519,load_cell,-7712,-0.03586786427145708,-10.153116339321356
1780471463596251345,1780471463.596251249,1780471463,595659857,load_cell,-5552,-0.025867864271457076,-7.3224163393213555
1780471463606546330,1780471463.606546402,1780471463,605649322,load_cell,-5432,-0.02526786427145708,-7.152574339321356
1780471463616270052,1780471463.616270065,1780471463,615660131,load_cell,-3962,-0.01846786427145708,-5.227698339321355
1780471463626364835,1780471463.626364946,1780471463,625643996,load_cell,-3048,-0.014167864271457081,-4.010497339321356
1780471463636783282,1780471463.636783361,1780471463,635683735,load_cell,-1989,-0.00926786427145708,-2.6234543393213556
1780471463646174891,1780471463.646174908,1780471463,645642830,load_cell,-1961,-0.009167864271457077,-2.5951473393213558
1780471463656271241,1780471463.656271219,1780471463,655641992,load_cell,-1351,-0.006267864271457077,-1.7742443393213545
1780471463666583123,1780471463.666583061,1780471463,665716357,load_cell,-847,-0.0039678642714570805,-1.123183339321356
1780471463676010350,1780471463.676010370,1780471463,675646362,load_cell,-3005,-0.013967864271457076,-3.9538833393213544
1780471463686689100,1780471463.686689138,1780471463,685660596,load_cell,-658,-0.0030678642714570756,-0.8684203393213554
1780471463696180202,1780471463.696180105,1780471463,695650573,load_cell,-2565,-0.01196786427145708,-3.3877433393213554
1780471463706183875,1780471463.706183910,1780471463,705659079,load_cell,-4458,-0.020767864271457076,-5.8787593393213555
1780471463716399912,1780471463.716399908,1780471463,715650496,load_cell,-7317,-0.03406786427145708,-9.643590339321355
1780471463726205911,1780471463.726205826,1780471463,725649049,load_cell,-11960,-0.055667864271457076,-15.757902339321356
1780471463736235410,1780471463.736235380,1780471463,735650162,load_cell,-9781,-0.04556786427145708,-12.898895339321355
1780471463746643169,1780471463.746643066,1780471463,745650028,load_cell,-8252,-0.03846786427145708,-10.889098339321356
1780471463756296840,1780471463.756296873,1780471463,755651269,load_cell,-8922,-0.041567864271457075,-11.766615339321353
1780471463766694262,1780471463.766694307,1780471463,765647934,load_cell,-7208,-0.03356786427145708,-9.502055339321357
1780471463776704144,1780471463.776704073,1780471463,775670777,load_cell,1239,0.00573213572854292,1.622595660678643
1780471463786303476,1780471463.786303520,1780471463,785655281,load_cell,-5026,-0.02336786427145708,-6.614741339321355
1780471463796118691,1780471463.796118736,1780471463,795644618,load_cell,-248,-0.0011678642714570801,-0.3305873393213563
1780471463806168415,1780471463.806168318,1780471463,805651747,load_cell,-2825,-0.01316786427145708,-3.7274273393213555
1780471463816859038,1780471463.816859007,1780471463,815700031,load_cell,-96,-0.00046786427145707743,-0.1324383393213555
1780471463826189939,1780471463.826189995,1780471463,825657814,load_cell,347,0.0016321357285429203,0.4620086606786433
1780471463836040804,1780471463.836040735,1780471463,835655856,load_cell,-774,-0.003567864271457076,-1.0099553393213547
1780471463846114593,1780471463.846114635,1780471463,845651721,load_cell,-2166,-0.010067864271457082,-2.8499103393213563
1780471463856348135,1780471463.856348038,1780471463,855690756,load_cell,-3941,-0.018367864271457077,-5.199391339321355
1780471463866401955,1780471463.866401911,1780471463,865661724,load_cell,-7276,-0.03386786427145708,-9.586976339321355
1780471463876643530,1780471463.876643419,1780471463,875678262,load_cell,-6705,-0.03126786427145708,-8.850994339321355
1780471463887179584,1780471463.887179613,1780471463,885791925,load_cell,-8492,-0.03956786427145707,-11.200475339321352
1780471463896630460,1780471463.896630526,1780471463,895662280,load_cell,-12429,-0.057867864271457084,-16.380656339321355
1780471463906453899,1780471463.906453848,1780471463,905669089,load_cell,-17282,-0.08046786427145708,-22.778038339321355
1780471463916554314,1780471463.916554213,1780471463,915650138,load_cell,-7809,-0.03636786427145708,-10.294651339321357
1780471463926229234,1780471463.926229239,1780471463,925658035,load_cell,-10692,-0.049767864271457074,-14.087789339321352
1780471463936592351,1780471463.936592340,1780471463,935669037,load_cell,-6749,-0.03146786427145708,-8.907608339321355
1780471463946314121,1780471463.946314096,1780471463,945742410,load_cell,-3381,-0.01576786427145708,-4.463409339321355
1780471463957547557,1780471463.957547665,1780471463,956718168,load_cell,-3107,-0.014467864271457076,-4.0954183393213555
1780471463966609484,1780471463.966609478,1780471463,965637463,load_cell,-1418,-0.006567864271457079,-1.8591653393213559
1780471463976952535,1780471463.976952553,1780471463,975745142,load_cell,-1227,-0.005667864271457081,-1.6044023393213553
1780471463986636544,1780471463.986636639,1780471463,985748016,load_cell,-181,-0.0008678642714570785,-0.24566633932135495
1780471463997541769,1780471463.997541666,1780471463,995670501,load_cell,372,0.0017321357285429197,0.49031566067864496
1780471464006029746,1780471464.006029844,1780471464,5741794,load_cell,2827,0.01313213572854292,3.717313660678643
1780471464016781971,1780471464.016782045,1780471464,15655991,load_cell,-838,-0.0038678642714570777,-1.094876339321356
1780471464026117769,1780471464.026117802,1780471464,25696434,load_cell,-3801,-0.017667864271457077,-5.0012423393213545
1780471464036053887,1780471464.036053896,1780471464,35700652,load_cell,-4891,-0.022767864271457078,-6.4448993393213545
1780471464049612536,1780471464.049612522,1780471464,49190209,load_cell,-5159,-0.02406786427145708,-6.812890339321356
1780471464056108917,1780471464.056108952,1780471464,55688542,load_cell,-6015,-0.02796786427145708,-7.916863339321358
1780471464066420191,1780471464.066420078,1780471464,65665846,load_cell,-3862,-0.01796786427145708,-5.086163339321356
1780471464076327347,1780471464.076327324,1780471464,75748564,load_cell,-8972,-0.04176786427145708,-11.823229339321356
1780471464086532184,1780471464.086532116,1780471464,85885493,load_cell,-2536,-0.011767864271457082,-3.3311293393213557
1780471464096236289,1780471464.096236229,1780471464,95787785,load_cell,-867,-0.0040678642714570765,-1.1514903393213558
1780471464106951425,1780471464.106951475,1780471464,105919882,load_cell,-1827,-0.008467864271457078,-2.396998339321355
1780471464116928505,1780471464.116928577,1780471464,115693751,load_cell,-986,-0.004567864271457077,-1.293025339321355
1780471464126961172,1780471464.126961231,1780471464,125738739,load_cell,451,0.0021321357285429207,0.6035436606786444
1780471464140267264,1780471464.140267372,1780471464,137623409,load_cell,2633,0.012232135728542922,3.4625506606786463
1780471464147333179,1780471464.147333145,1780471464,145908911,load_cell,1953,0.00913213572854292,2.5850336606786417
1780471464156492455,1780471464.156492472,1780471464,155670107,load_cell,3186,0.01483213572854292,4.198532660678643
1780471464165885632,1780471464.165885687,1780471464,165659380,load_cell,1755,0.008132135728542923,2.3019636606786467
1780471464176445912,1780471464.176445961,1780471464,175671598,load_cell,-249,-0.0011678642714570801,-0.3305873393213563
1780471464186002489,1780471464.186002493,1780471464,185701321,load_cell,-2540,-0.011867864271457078,-3.3594363393213555
1780471464196066518,1780471464.196066618,1780471464,195660768,load_cell,-5206,-0.02426786427145708,-6.869504339321356
1780471464207485500,1780471464.207485437,1780471464,205844516,load_cell,-9178,-0.04276786427145708,-12.106299339321355
1780471464216036839,1780471464.216036797,1780471464,215662419,load_cell,-9279,-0.04316786427145708,-12.219527339321354
1780471464226148967,1780471464.226149082,1780471464,225796340,load_cell,-10754,-0.05006786427145708,-14.172710339321357
1780471464236692157,1780471464.236692190,1780471464,235664614,load_cell,-5706,-0.026567864271457076,-7.5205653393213545
1780471464246533038,1780471464.246533155,1780471464,245761381,load_cell,-6520,-0.03036786427145708,-8.596231339321355
1780471464256867002,1780471464.256866932,1780471464,255703707,load_cell,-2231,-0.010367864271457077,-2.934831339321354
1780471464266399258,1780471464.266399145,1780471464,265729430,load_cell,-6225,-0.028967864271457082,-8.199933339321356
1780471464276558108,1780471464.276558161,1780471464,275671788,load_cell,-7677,-0.035767864271457075,-10.124809339321354
1780471464286324073,1780471464.286324024,1780471464,285680294,load_cell,-1574,-0.007367864271457081,-2.0856213393213565
1780471464296292416,1780471464.296292305,1780471464,295728962,load_cell,-1727,-0.00806786427145708,-2.2837703393213555
1780471464306069934,1780471464.306069851,1780471464,305679609,load_cell,-1926,-0.008967864271457078,-2.538533339321356
1780471464316667943,1780471464.316668034,1780471464,315707732,load_cell,-2215,-0.01026786427145708,-2.906524339321356
1780471464326199624,1780471464.326199532,1780471464,325773937,load_cell,37,0.0001321357285429224,0.03740366067864542
1780471464336355337,1780471464.336355448,1780471464,335641251,load_cell,-4432,-0.02066786427145708,-5.850452339321356
1780471464346463689,1780471464.346463680,1780471464,345727969,load_cell,-8882,-0.04136786427145708,-11.710001339321357
1780471464356120880,1780471464.356120825,1780471464,355723098,load_cell,-11026,-0.05136786427145708,-14.540701339321354
1780471464366800430,1780471464.366800547,1780471464,365669489,load_cell,-13251,-0.06166786427145708,-17.456322339321353
1780471464376062687,1780471464.376062632,1780471464,375731854,load_cell,-13725,-0.06386786427145708,-18.079076339321354
1780471464386290597,1780471464.386290550,1780471464,385676164,load_cell,-6109,-0.02846786427145708,-8.058398339321355
1780471464396559309,1780471464.396559238,1780471464,395691550,load_cell,-9524,-0.044367864271457086,-12.559211339321356
1780471464406440256,1780471464.406440258,1780471464,405721401,load_cell,-8029,-0.03736786427145708,-10.577721339321355
1780471464417931433,1780471464.417931318,1780471464,415920765,load_cell,-5090,-0.023667864271457076,-6.699662339321355
1780471464426051966,1780471464.426051855,1780471464,425721260,load_cell,-12448,-0.05796786427145707,-16.408963339321353
1780471464436065560,1780471464.436065674,1780471464,435728358,load_cell,-5318,-0.02476786427145708,-7.011039339321355
1780471464446123604,1780471464.446123600,1780471464,445674012,load_cell,-6589,-0.030667864271457082,-8.681152339321356
1780471464456088140,1780471464.456088066,1780471464,455644724,load_cell,-3440,-0.01606786427145708,-4.548330339321357
1780471464466014625,1780471464.466014624,1780471464,465751091,load_cell,-5538,-0.02576786427145708,-7.294109339321356
1780471464476072318,1780471464.476072311,1780471464,475677705,load_cell,-3030,-0.014067864271457078,-3.982190339321356
1780471464486053142,1780471464.486053228,1780471464,485681602,load_cell,-2788,-0.012967864271457082,-3.670813339321356
1780471464496315422,1780471464.496315479,1780471464,495885351,load_cell,-3011,-0.014067864271457078,-3.982190339321356
1780471464507406354,1780471464.507406473,1780471464,505958436,load_cell,-4127,-0.01926786427145708,-5.454154339321356
1780471464517001045,1780471464.517001152,1780471464,515810613,load_cell,-4329,-0.02016786427145708,-5.708917339321356
1780471464526434768,1780471464.526434660,1780471464,525779085,load_cell,-8023,-0.03736786427145708,-10.577721339321355
1780471464536588082,1780471464.536588192,1780471464,535705027,load_cell,-7073,-0.03296786427145708,-9.332213339321354
1780471464546358559,1780471464.546358585,1780471464,545844516,load_cell,-3517,-0.016367864271457082,-4.633251339321356
1780471464556140045,1780471464.556139946,1780471464,555781722,load_cell,-2875,-0.01336786427145708,-3.7840413393213552
1780471464566361106,1780471464.566361189,1780471464,565937179,load_cell,-2875,-0.01336786427145708,-3.7840413393213552
1780471464576093501,1780471464.576093435,1780471464,575721769,load_cell,-2672,-0.012467864271457081,-3.5292783393213565
1780471464586313954,1780471464.586313963,1780471464,585872235,load_cell,-2672,-0.012467864271457081,-3.5292783393213565
1780471464596300891,1780471464.596300840,1780471464,595694266,load_cell,-2586,-0.012067864271457077,-3.4160503393213553
1780471464606648551,1780471464.606648445,1780471464,605856061,load_cell,-534,-0.002467864271457079,-0.6985783393213563
1780471464616653345,1780471464.616653442,1780471464,616044480,load_cell,-1092,-0.005067864271457077,-1.4345603393213544
1780471464626342218,1780471464.626342297,1780471464,625723336,load_cell,-274,-0.0012678642714570795,-0.35889433932135617
1780471464636092886,1780471464.636092901,1780471464,635703265,load_cell,-318,-0.0014678642714570783,-0.4155083393213559
1780471464646348989,1780471464.646348953,1780471464,645964680,load_cell,-785,-0.003667864271457079,-1.0382623393213564
1780471464657197124,1780471464.657197237,1780471464,655779319,load_cell,-1005,-0.00466786427145708,-1.3213323393213567
1780471464666464374,1780471464.666464329,1780471464,665750831,load_cell,-4566,-0.021267864271457076,-6.020294339321355
1780471464676095547,1780471464.676095486,1780471464,675690502,load_cell,-4382,-0.02036786427145708,-5.765531339321356
1780471464686271902,1780471464.686271906,1780471464,685721953,load_cell,-4762,-0.02216786427145708,-6.275057339321357
1780471464696653356,1780471464.696653366,1780471464,695754524,load_cell,-6535,-0.030467864271457076,-8.624538339321356
1780471464706048837,1780471464.706048727,1780471464,705713299,load_cell,-3019,-0.014067864271457078,-3.982190339321356
1780471464716211847,1780471464.716211796,1780471464,715758671,load_cell,-5182,-0.024167864271457076,-6.841197339321354
1780471464726270404,1780471464.726270437,1780471464,725698469,load_cell,-1683,-0.007867864271457081,-2.227156339321356
1780471464736090067,1780471464.736090183,1780471464,735698942,load_cell,-2220,-0.010367864271457077,-2.934831339321354
1780471464746118670,1780471464.746118784,1780471464,745706648,load_cell,-2220,-0.010367864271457077,-2.934831339321354
1780471464756493596,1780471464.756493568,1780471464,755929822,load_cell,-2668,-0.012467864271457081,-3.5292783393213565
1780471464765974841,1780471464.765974760,1780471464,765702315,load_cell,-2668,-0.012467864271457081,-3.5292783393213565
1780471464776926150,1780471464.776926041,1780471464,775703300,load_cell,726,0.0033321357285429204,0.9432276606786445
1780471464786608174,1780471464.786608219,1780471464,785812932,load_cell,726,0.0033321357285429204,0.9432276606786445
1780471464796076011,1780471464.796076059,1780471464,795739769,load_cell,1996,0.009332135728542922,2.641647660678645
1780471464806426551,1780471464.806426525,1780471464,805786165,load_cell,-1248,-0.005767864271457077,-1.6327093393213552
1780471464816365581,1780471464.816365480,1780471464,815952439,load_cell,-846,-0.0039678642714570805,-1.123183339321356
1780471464826125754,1780471464.826125860,1780471464,825782024,load_cell,-3094,-0.01436786427145708,-4.067111339321356
1780471464836526825,1780471464.836526871,1780471464,835792994,load_cell,-3094,-0.01436786427145708,-4.067111339321356
1780471464846194033,1780471464.846194029,1780471464,845708598,load_cell,-4230,-0.01966786427145708,-5.567382339321355
1780471464856264398,1780471464.856264353,1780471464,855708688,load_cell,-4230,-0.01966786427145708,-5.567382339321355
1780471464866309482,1780471464.866309404,1780471464,865751596,load_cell,-3848,-0.01796786427145708,-5.086163339321356
1780471464876215390,1780471464.876215458,1780471464,875797287,load_cell,-3848,-0.01796786427145708,-5.086163339321356
1780471464886576747,1780471464.886576653,1780471464,885755871,load_cell,-34,-0.00016786427145707924,-0.047517339321355934
1780471464896227953,1780471464.896227837,1780471464,895698901,load_cell,-34,-0.00016786427145707924,-0.047517339321355934
1780471464906227915,1780471464.906227827,1780471464,905791187,load_cell,-1316,-0.006167864271457081,-1.7459373393213564
1780471464916547765,1780471464.916547775,1780471464,915729417,load_cell,1008,0.004732135728542922,1.3395256606786443
1780471464926200412,1780471464.926200390,1780471464,925705121,load_cell,397,0.0018321357285429225,0.5186226606786448
1780471464936354942,1780471464.936354876,1780471464,935735837,load_cell,477,0.00223213572854292,0.6318506606786443
1780471464946481758,1780471464.946481705,1780471464,945768760,load_cell,1349,0.00623213572854292,1.764130660678644
1780471464956625727,1780471464.956625700,1780471464,955758449,load_cell,2693,0.01253213572854292,3.547471660678644
1780471464966302759,1780471464.966302872,1780471464,965771947,load_cell,1480,0.006932135728542919,1.9622796606786448
1780471464976510668,1780471464.976510763,1780471464,975731714,load_cell,546,0.0025321357285429218,0.7167716606786438
1780471464986639084,1780471464.986639023,1780471464,985744924,load_cell,604,0.00283213572854292,0.8016926606786452
1780471464996970615,1780471464.996970654,1780471464,995705427,load_cell,-303,-0.001367864271457079,-0.38720133932135603
1780471465006175526,1780471465.006175518,1780471465,5798034,load_cell,-3937,-0.018367864271457077,-5.199391339321355
1780471465016988555,1780471465.016988516,1780471465,15974645,load_cell,-6055,-0.02816786427145708,-7.973477339321354
1780471465026420166,1780471465.026420116,1780471465,25763651,load_cell,-4387,-0.02046786427145708,-5.793838339321356
1780471465036799092,1780471465.036799192,1780471465,35738971,load_cell,-11644,-0.05426786427145708,-15.361604339321355
1780471465046272529,1780471465.046272516,1780471465,45892925,load_cell,-8540,-0.03976786427145708,-11.257089339321356
1780471465056600476,1780471465.056600571,1780471465,56094017,load_cell,-735,-0.00346786427145708,-0.9816483393213566
1780471465066466863,1780471465.066466808,1780471465,65912305,load_cell,-533,-0.002467864271457079,-0.6985783393213563
1780471465076329921,1780471465.076329947,1780471465,75705311,load_cell,155,0.0007321357285429222,0.20724566067864458
1780471465086585576,1780471465.086585522,1780471465,86230741,load_cell,-1178,-0.005467864271457082,-1.5477883393213574
1780471465096518846,1780471465.096518755,1780471465,95767670,load_cell,165,0.0007321357285429222,0.20724566067864458
1780471465106165221,1780471465.106165171,1780471465,105756335,load_cell,620,0.0029321357285429193,0.8299996606786433
1780471465116292421,1780471465.116292477,1780471465,115849965,load_cell,1869,0.008732135728542922,2.471805660678646
1780471465126795898,1780471465.126796007,1780471465,125803396,load_cell,1483,0.006932135728542919,1.9622796606786448
1780471465137488888,1780471465.137488842,1780471465,135714777,load_cell,858,0.00403213572854292,1.1413766606786435
1780471465146756363,1780471465.146756411,1780471465,146046916,load_cell,-688,-0.0031678642714570784,-0.8967273393213553
1780471465158220307,1780471465.158220291,1780471465,155747630,load_cell,-1575,-0.007367864271457081,-2.0856213393213565
1780471465166771454,1780471465.166771412,1780471465,165740935,load_cell,-2345,-0.01096786427145708,-3.104673339321355
1780471465178854184,1780471465.178854227,1780471465,176284414,load_cell,-1420,-0.006567864271457079,-1.8591653393213559
1780471465188177725,1780471465.188177824,1780471465,185865761,load_cell,-1202,-0.005567864271457078,-1.5760953393213555
1780471465198250490,1780471465.198250532,1780471465,195848729,load_cell,-75,-0.00036786427145707803,-0.10413133932135565
1780471465207060628,1780471465.207060575,1780471465,206058878,load_cell,-535,-0.002467864271457079,-0.6985783393213563
1780471465216771198,1780471465.216771126,1780471465,215743015,load_cell,687,0.003232135728542921,0.9149206606786446
1780471465227682121,1780471465.227682114,1780471465,226698996,load_cell,1159,0.0054321357285429216,1.5376746606786451
1780471465236200338,1780471465.236200333,1780471465,235809981,load_cell,1271,0.005932135728542922,1.6792096606786444
1780471465246441465,1780471465.246441364,1780471465,245718610,load_cell,1764,0.008232135728542922,2.3302706606786447
1780471465256176484,1780471465.256176472,1780471465,255731628,load_cell,1832,0.00853213572854292,2.415191660678646
1780471465266203487,1780471465.266203403,1780471465,265757031,load_cell,1514,0.007032135728542922,1.9905866606786446
1780471465276476775,1780471465.276476860,1780471465,275800643,load_cell,1371,0.0064321357285429225,1.8207446606786437
1780471465286209170,1780471465.286209106,1780471465,285757178,load_cell,1579,0.0073321357285429205,2.0755076606786442
1780471465296953780,1780471465.296953678,1780471465,295911452,load_cell,1654,0.0077321357285429215,2.1887356606786437
1780471465306484116,1780471465.306484222,1780471465,305844434,load_cell,1369,0.00633213572854292,1.7924376606786439
1780471465318364595,1780471465.318364620,1780471465,316908549,load_cell,402,0.0018321357285429225,0.5186226606786448
1780471465326458630,1780471465.326458693,1780471465,325833284,load_cell,-769,-0.003567864271457076,-1.0099553393213547
1780471465336220659,1780471465.336220741,1780471465,335735353,load_cell,-3975,-0.01846786427145708,-5.227698339321355
1780471465346581792,1780471465.346581697,1780471465,345758227,load_cell,937,0.004332135728542921,1.2262976606786449
1780471465356952237,1780471465.356952190,1780471465,355830161,load_cell,-4499,-0.020967864271457082,-5.935373339321357
1780471465366811199,1780471465.366811275,1780471465,366385928,load_cell,-1444,-0.0067678642714570775,-1.9157793393213556
1780471465376358304,1780471465.376358271,1780471465,375749119,load_cell,135,0.0006321357285429194,0.17893866067864295
1780471465386076075,1780471465.386075974,1780471465,385729944,load_cell,83,0.0004321357285429206,0.122324660678645
1780471465397213441,1780471465.397213459,1780471465,395776340,load_cell,319,0.0015321357285429209,0.43370166067864524
1780471465406129856,1780471465.406129837,1780471465,405729035,load_cell,788,0.003632135728542922,1.028148660678644
1780471465416682360,1780471465.416682243,1780471465,415751430,load_cell,2095,0.00973213572854292,2.7548756606786444
1780471465426166998,1780471465.426167011,1780471465,425745311,load_cell,2095,0.00973213572854292,2.7548756606786444
1780471465436323895,1780471465.436323881,1780471465,435756377,load_cell,3083,0.014332135728542921,4.056997660678645
1780471465446179017,1780471465.446178913,1780471465,445748114,load_cell,3083,0.014332135728542921,4.056997660678645
1780471465457003535,1780471465.457003593,1780471465,455749484,load_cell,1017,0.004732135728542922,1.3395256606786443
1780471465466175164,1780471465.466175079,1780471465,465753157,load_cell,1017,0.004732135728542922,1.3395256606786443
1780471465476482310,1780471465.476482391,1780471465,475753439,load_cell,-801,-0.0037678642714570817,-1.0665693393213562
1780471465486183792,1780471465.486183882,1780471465,485726391,load_cell,-470,-0.0021678642714570776,-0.6136573393213549
1780471465497137052,1780471465.497137070,1780471465,495784724,load_cell,-1509,-0.007067864271457079,-2.000700339321355
1780471465506505012,1780471465.506505013,1780471465,505744139,load_cell,-3088,-0.01436786427145708,-4.067111339321356
1780471465516228831,1780471465.516228914,1780471465,515755365,load_cell,-3088,-0.01436786427145708,-4.067111339321356
1780471465526484870,1780471465.526484966,1780471465,525747550,load_cell,-6967,-0.03246786427145708,-9.190678339321357
1780471465536320151,1780471465.536320210,1780471465,535767865,load_cell,-6967,-0.03246786427145708,-9.190678339321357
1780471465546305071,1780471465.546305180,1780471465,545777043,load_cell,-525,-0.002467864271457079,-0.6985783393213563
1780471465556328010,1780471465.556328058,1780471465,555756075,load_cell,-525,-0.002467864271457079,-0.6985783393213563
1780471465566254688,1780471465.566254616,1780471465,565749028,load_cell,1272,0.005932135728542922,1.6792096606786444
1780471465576558281,1780471465.576558352,1780471465,575764479,load_cell,-956,-0.004467864271457081,-1.264718339321357
1780471465586451677,1780471465.586451769,1780471465,585751032,load_cell,-956,-0.004467864271457081,-1.264718339321357
1780471465596433142,1780471465.596433163,1780471465,595757073,load_cell,1824,0.00853213572854292,2.415191660678646
1780471465607558924,1780471465.607558966,1780471465,606590584,load_cell,59,0.0002321357285429218,0.06571066067864528
1780471465616510381,1780471465.616510391,1780471465,615762277,load_cell,884,0.0041321357285429225,1.1696836606786452
1780471465626110673,1780471465.626110792,1780471465,625757694,load_cell,884,0.0041321357285429225,1.1696836606786452
1780471465636296244,1780471465.636296272,1780471465,635764568,load_cell,-3008,-0.013967864271457076,-3.9538833393213544
1780471465646794025,1780471465.646794081,1780471465,645783474,load_cell,-3008,-0.013967864271457076,-3.9538833393213544
1780471465656253253,1780471465.656253338,1780471465,655760331,load_cell,-3102,-0.014467864271457076,-4.0954183393213555
1780471465666547983,1780471465.666548014,1780471465,665762308,load_cell,-351,-0.0016678642714570806,-0.4721223393213556
1780471465676627244,1780471465.676627159,1780471465,675775935,load_cell,-351,-0.0016678642714570806,-0.4721223393213556
1780471465686478718,1780471465.686478615,1780471465,685755703,load_cell,-4840,-0.02256786427145708,-6.388285339321355
1780471465696204585,1780471465.696204662,1780471465,695765457,load_cell,-2717,-0.01266786427145708,-3.585892339321356
1780471465706328265,1780471465.706328154,1780471465,705756810,load_cell,-742,-0.00346786427145708,-0.9816483393213566
1780471465716550286,1780471465.716550350,1780471465,715770052,load_cell,-742,-0.00346786427145708,-0.9816483393213566
1780471465726430945,1780471465.726430893,1780471465,725757949,load_cell,-1751,-0.008167864271457076,-2.3120773393213554
1780471465736123466,1780471465.736123562,1780471465,735758199,load_cell,-1751,-0.008167864271457076,-2.3120773393213554
1780471465746419796,1780471465.746419907,1780471465,745754608,load_cell,-1127,-0.005267864271457076,-1.4911743393213541
1780471465756483921,1780471465.756484032,1780471465,755766122,load_cell,-1127,-0.005267864271457076,-1.4911743393213541
1780471465766393253,1780471465.766393185,1780471465,765756419,load_cell,921,0.004332135728542921,1.2262976606786449
1780471465776894842,1780471465.776894808,1780471465,775764061,load_cell,-2279,-0.010567864271457082,-2.9914453393213574
1780471465786424442,1780471465.786424398,1780471465,785782712,load_cell,-4055,-0.018867864271457077,-5.340926339321355
1780471465796231145,1780471465.796231031,1780471465,795760304,load_cell,-4534,-0.021067864271457078,-5.963680339321355
1780471465806466416,1780471465.806466341,1780471465,805801836,load_cell,-4534,-0.021067864271457078,-5.963680339321355
1780471465816901088,1780471465.816901207,1780471465,816062227,load_cell,-8860,-0.04126786427145708,-11.681694339321355
1780471465826293529,1780471465.826293468,1780471465,825796191,load_cell,-8860,-0.04126786427145708,-11.681694339321355
1780471465836479421,1780471465.836479425,1780471465,835775351,load_cell,-6317,-0.02936786427145708,-8.313161339321356
1780471465846033246,1780471465.846033335,1780471465,845768080,load_cell,-5102,-0.02376786427145708,-6.727969339321355
1780471465856634744,1780471465.856634855,1780471465,855780330,load_cell,-3324,-0.015467864271457077,-4.378488339321356
1780471465866109589,1780471465.866109610,1780471465,865775524,load_cell,-3038,-0.014167864271457081,-4.010497339321356
1780471465876264407,1780471465.876264334,1780471465,875774493,load_cell,-9,-6.786427145707985e-05,-0.019210339321356074
1780471465886569857,1780471465.886569738,1780471465,885769238,load_cell,1685,0.007832135728542921,2.2170426606786453
1780471465896366608,1780471465.896366596,1780471465,895777296,load_cell,1685,0.007832135728542921,2.2170426606786453
1780471465906182015,1780471465.906182051,1780471465,905769257,load_cell,2780,0.012932135728542921,3.6606996606786435
1780471465916579022,1780471465.916579008,1780471465,915779715,load_cell,2780,0.012932135728542921,3.6606996606786435
1780471465926538918,1780471465.926538944,1780471465,925885955,load_cell,3084,0.014332135728542921,4.056997660678645
1780471465936200781,1780471465.936200857,1780471465,935780822,load_cell,818,0.003832135728542921,1.0847626606786438
1780471465946880779,1780471465.946880817,1780471465,945769807,load_cell,1335,0.00623213572854292,1.764130660678644
1780471465956276580,1780471465.956276655,1780471465,955779049,load_cell,-1738,-0.00806786427145708,-2.2837703393213555
1780471465966207226,1780471465.966207266,1780471465,965763202,load_cell,-1738,-0.00806786427145708,-2.2837703393213555
1780471465976469794,1780471465.976469755,1780471465,975917220,load_cell,-1304,-0.006067864271457078,-1.7176303393213548
1780471465987105277,1780471465.987105370,1780471465,985770998,load_cell,-1304,-0.006067864271457078,-1.7176303393213548
1780471465996320493,1780471465.996320486,1780471465,995771087,load_cell,-2682,-0.012467864271457081,-3.5292783393213565
1780471466007031756,1780471466.007031679,1780471466,5770441,load_cell,-2682,-0.012467864271457081,-3.5292783393213565
1780471466016294430,1780471466.016294479,1780471466,15823301,load_cell,-2121,-0.009867864271457076,-2.793296339321355
1780471466026525476,1780471466.026525497,1780471466,25787805,load_cell,-2311,-0.010767864271457081,-3.048059339321357
1780471466036880753,1780471466.036880732,1780471466,35785206,load_cell,-664,-0.0030678642714570756,-0.8684203393213554
1780471466046478453,1780471466.046478510,1780471466,45779472,load_cell,-4994,-0.023267864271457078,-6.586434339321356
1780471466056328999,1780471466.056329012,1780471466,55788522,load_cell,-503,-0.0023678642714570763,-0.6702713393213546
1780471466066552300,1780471466.066552401,1780471466,65797636,load_cell,592,0.0027321357285429206,0.7733856606786436
1780471466076226709,1780471466.076226711,1780471466,75777916,load_cell,98,0.0004321357285429206,0.122324660678645
1780471466086830415,1780471466.086830378,1780471466,85778646,load_cell,-223,-0.0010678642714570773,-0.3022803393213547
1780471466096361007,1780471466.096360922,1780471466,95816466,load_cell,-2092,-0.00976786427145708,-2.7649893393213567
1780471466106738429,1780471466.106738329,1780471466,105795274,load_cell,-3822,-0.01776786427145708,-5.029549339321356
1780471466116572046,1780471466.116572142,1780471466,115797700,load_cell,-4542,-0.02116786427145708,-5.991987339321357
1780471466126475426,1780471466.126475334,1780471466,125787549,load_cell,-4113,-0.01916786427145708,-5.425847339321356
1780471466136450522,1780471466.136450529,1780471466,135780950,load_cell,-5302,-0.024667864271457077,-6.982732339321355
1780471466146439668,1780471466.146439552,1780471466,145788497,load_cell,-6073,-0.028267864271457076,-8.001784339321356
1780471466156449262,1780471466.156449318,1780471466,155789354,load_cell,-3425,-0.015967864271457077,-4.520023339321355
1780471466166353090,1780471466.166352987,1780471466,165818661,load_cell,-3553,-0.01656786427145708,-4.689865339321356
1780471466176151409,1780471466.176151514,1780471466,175813887,load_cell,51,0.0002321357285429218,0.06571066067864528
1780471466186660806,1780471466.186660767,1780471466,185792247,load_cell,-2644,-0.012267864271457082,-3.4726643393213568
1780471466196157349,1780471466.196157455,1780471466,195791345,load_cell,3102,0.014432135728542921,4.085304660678643
1780471466207023181,1780471466.207023144,1780471466,205784362,load_cell,14,3.2135728542919545e-05,0.009096660678643786
1780471466216215547,1780471466.216215611,1780471466,215794116,load_cell,540,0.0025321357285429218,0.7167716606786438
1780471466226441953,1780471466.226441860,1780471466,225787998,load_cell,744,0.00343213572854292,0.9715346606786444
1780471466236662502,1780471466.236662388,1780471466,235818329,load_cell,2993,0.01393213572854292,3.943769660678642
1780471466246814152,1780471466.246814251,1780471466,245845044,load_cell,2212,0.01033213572854292,2.9247176606786436
1780471466256508017,1780471466.256508112,1780471466,255833069,load_cell,245,0.0011321357285429198,0.320473660678644
1780471466266847869,1780471466.266847849,1780471466,265793604,load_cell,-289,-0.001367864271457079,-0.38720133932135603
1780471466276227445,1780471466.276227474,1780471466,275825312,load_cell,-305,-0.0014678642714570783,-0.4155083393213559
1780471466286440859,1780471466.286440849,1780471466,285882269,load_cell,-1656,-0.0076678642714570824,-2.170542339321356
1780471466296588956,1780471466.296588898,1780471466,295797490,load_cell,-2048,-0.009567864271457081,-2.708375339321357
1780471466306343657,1780471466.306343555,1780471466,305783306,load_cell,-2673,-0.012467864271457081,-3.5292783393213565
1780471466316956003,1780471466.316956043,1780471466,316054227,load_cell,-652,-0.0030678642714570756,-0.8684203393213554
1780471466326513541,1780471466.326513529,1780471466,325798943,load_cell,-2809,-0.013067864271457078,-3.6991203393213556
1780471466336581602,1780471466.336581707,1780471466,335813145,load_cell,1543,0.007232135728542921,2.0472006606786444
1780471466346487447,1780471466.346487522,1780471466,345794610,load_cell,-1755,-0.008167864271457076,-2.3120773393213554
1780471466356676667,1780471466.356676579,1780471466,355799756,load_cell,2709,0.01263213572854292,3.5757786606786457
1780471466366208123,1780471466.366208076,1780471466,365804261,load_cell,-2464,-0.01146786427145708,-3.246208339321356
1780471466376498500,1780471466.376498461,1780471466,375800383,load_cell,994,0.0046321357285429195,1.3112186606786427
1780471466386471677,1780471466.386471748,1780471466,385806393,load_cell,2275,0.010632135728542921,3.009638660678645
1780471466396997458,1780471466.396997452,1780471466,395814163,load_cell,1260,0.005832135728542923,1.6509026606786446
1780471466406633881,1780471466.406633854,1780471466,405796908,load_cell,1487,0.006932135728542919,1.9622796606786448
1780471466416252350,1780471466.416252375,1780471466,415788037,load_cell,-1220,-0.005667864271457081,-1.6044023393213553
1780471466426419936,1780471466.426419973,1780471466,425809568,load_cell,-3313,-0.015467864271457077,-4.378488339321356
1780471466436593347,1780471466.436593294,1780471466,435845531,load_cell,-3269,-0.015267864271457078,-4.321874339321356
1780471466446240362,1780471466.446240425,1780471466,445787890,load_cell,-2946,-0.013767864271457077,-3.8972693393213547
1780471466456406477,1780471466.456406593,1780471466,455824973,load_cell,-4031,-0.01876786427145708,-5.3126193393213565
1780471466466155065,1780471466.466155052,1780471466,465799782,load_cell,-9215,-0.042867864271457085,-12.134606339321357
1780471466476252024,1780471466.476252079,1780471466,475807968,load_cell,-2572,-0.01196786427145708,-3.3877433393213554
1780471466486593860,1780471466.486593962,1780471466,485834779,load_cell,-8797,-0.040967864271457086,-11.596773339321357
1780471466496827626,1780471466.496827602,1780471466,495829044,load_cell,-3405,-0.01586786427145708,-4.491716339321357
1780471466506543444,1780471466.506543398,1780471466,505796332,load_cell,-654,-0.0030678642714570756,-0.8684203393213554
1780471466516678197,1780471466.516678095,1780471466,515817447,load_cell,1681,0.007832135728542921,2.2170426606786453
1780471466526237335,1780471466.526237249,1780471466,525802368,load_cell,87,0.0004321357285429206,0.122324660678645
1780471466536537729,1780471466.536537647,1780471466,535835899,load_cell,1029,0.004832135728542922,1.3678326606786442
1780471466546813833,1780471466.546813726,1780471466,545825428,load_cell,1010,0.004732135728542922,1.3395256606786443
1780471466556307656,1780471466.556307554,1780471466,555819405,load_cell,2123,0.009932135728542922,2.811489660678644
1780471466566303841,1780471466.566303730,1780471466,565802502,load_cell,2472,0.01153213572854292,3.2644016606786455
1780471466576406304,1780471466.576406240,1780471466,575810400,load_cell,1456,0.006732135728542921,1.905665660678645
1780471466586472605,1780471466.586472511,1780471466,585859324,load_cell,229,0.0010321357285429204,0.29216666067864416
1780471466596392115,1780471466.596392155,1780471466,595806131,load_cell,584,0.0027321357285429206,0.7733856606786436
1780471466606748288,1780471466.606748343,1780471466,605839855,load_cell,-182,-0.0008678642714570785,-0.24566633932135495
1780471466616351044,1780471466.616351128,1780471466,615817991,load_cell,389,0.0018321357285429225,0.5186226606786448
1780471466626311899,1780471466.626312017,1780471466,625802560,load_cell,239,0.0011321357285429198,0.320473660678644
1780471466636612805,1780471466.636612892,1780471466,635817594,load_cell,236,0.0011321357285429198,0.320473660678644
1780471466646853868,1780471466.646853924,1780471466,645921338,load_cell,-794,-0.003667864271457079,-1.0382623393213564
1780471466656716190,1780471466.656716108,1780471466,655834383,load_cell,645,0.003032135728542922,0.8583066606786449
1780471466666172026,1780471466.666172028,1780471466,665811079,load_cell,2873,0.013332135728542922,3.7739276606786465
1780471466676166228,1780471466.676166296,1780471466,675815041,load_cell,2249,0.010432135728542923,2.953024660678645
1780471466686161773,1780471466.686161757,1780471466,685811130,load_cell,1657,0.0077321357285429215,2.1887356606786437
1780471466696318959,1780471466.696318865,1780471466,695883640,load_cell,2956,0.013732135728542922,3.887155660678646
1780471466706208643,1780471466.706208706,1780471466,705814190,load_cell,3996,0.01863213572854292,5.274198660678644
1780471466716339364,1780471466.716339350,1780471466,715826888,load_cell,3040,0.014132135728542921,4.000383660678645
1780471466726176116,1780471466.726176023,1780471466,725808833,load_cell,4232,0.019732135728542922,5.585575660678645
1780471466736392250,1780471466.736392260,1780471466,735820411,load_cell,2708,0.01263213572854292,3.5757786606786457
1780471466746277261,1780471466.746277332,1780471466,745817748,load_cell,1899,0.008832135728542922,2.500112660678644
1780471466756176417,1780471466.756176472,1780471466,755825967,load_cell,778,0.003632135728542922,1.028148660678644
1780471466766663861,1780471466.766663790,1780471466,765818952,load_cell,594,0.0027321357285429206,0.7733856606786436
1780471466776422466,1780471466.776422501,1780471466,775822690,load_cell,349,0.0016321357285429203,0.4620086606786433
1780471466786753261,1780471466.786753178,1780471466,785880702,load_cell,-2198,-0.01026786427145708,-2.906524339321356
1780471466796614367,1780471466.796614408,1780471466,795828949,load_cell,-1539,-0.007167864271457082,-2.029007339321357
1780471466806545397,1780471466.806545496,1780471466,805991288,load_cell,-1804,-0.008367864271457082,-2.368691339321357
1780471466816334244,1780471466.816334248,1780471466,815829865,load_cell,654,0.003032135728542922,0.8583066606786449
1780471466826501958,1780471466.826501846,1780471466,825850851,load_cell,890,0.0041321357285429225,1.1696836606786452
1780471466836281556,1780471466.836281538,1780471466,835831644,load_cell,3091,0.014432135728542921,4.085304660678643
1780471466846262285,1780471466.846262217,1780471466,845819445,load_cell,1106,0.00513213572854292,1.4527536606786438
1780471466856297576,1780471466.856297493,1780471466,855831791,load_cell,964,0.00453213572854292,1.2829116606786446
1780471466866255008,1780471466.866255045,1780471466,865827977,load_cell,1672,0.007832135728542921,2.2170426606786453
1780471466876671728,1780471466.876671791,1780471466,875837379,load_cell,1999,0.009332135728542922,2.641647660678645
1780471466886684330,1780471466.886684418,1780471466,885823612,load_cell,2582,0.01203213572854292,3.405936660678643
1780471466896278478,1780471466.896278381,1780471466,895832022,load_cell,1778,0.008232135728542922,2.3302706606786447
1780471466906299113,1780471466.906299114,1780471466,905834384,load_cell,1105,0.00513213572854292,1.4527536606786438
1780471466916404616,1780471466.916404724,1780471466,915846538,load_cell,1373,0.0064321357285429225,1.8207446606786437
1780471466926593804,1780471466.926593781,1780471466,925836963,load_cell,1054,0.004932135728542921,1.396139660678644
1780471466936765743,1780471466.936765671,1780471466,935833532,load_cell,-6678,-0.03106786427145708,-8.794380339321355
1780471466947094874,1780471466.947094917,1780471466,945811701,load_cell,-427,-0.0019678642714570788,-0.5570433393213552
1780471466956613594,1780471466.956613541,1780471466,955832720,load_cell,740,0.00343213572854292,0.9715346606786444
1780471466966214846,1780471466.966214895,1780471466,965824713,load_cell,37,0.0001321357285429224,0.03740366067864542
1780471466976661039,1780471466.976660967,1780471466,975833347,load_cell,1202,0.00563213572854292,1.5942886606786448
1780471466986230322,1780471466.986230373,1780471466,985834397,load_cell,1014,0.004732135728542922,1.3395256606786443
1780471466996344146,1780471466.996344090,1780471466,995838007,load_cell,2835,0.01323213572854292,3.745620660678645
1780471467006914346,1780471467.006914377,1780471467,5941494,load_cell,1878,0.008732135728542922,2.471805660678646
1780471467016483597,1780471467.016483545,1780471467,15843274,load_cell,3030,0.014132135728542921,4.000383660678645
1780471467026276731,1780471467.026276827,1780471467,25855877,load_cell,3871,0.01803213572854292,5.104356660678645
1780471467036469023,1780471467.036468983,1780471467,35841438,load_cell,3749,0.017432135728542922,4.934514660678646
1780471467046578687,1780471467.046578646,1780471467,45829111,load_cell,4262,0.01983213572854292,5.613882660678643
1780471467056376302,1780471467.056376219,1780471467,55840625,load_cell,4471,0.020832135728542922,5.896952660678645
1780471467066474957,1780471467.066474915,1780471467,65828554,load_cell,2529,0.011732135728542922,3.321015660678645
1780471467076708947,1780471467.076709032,1780471467,75857766,load_cell,1914,0.008932135728542921,2.5284196606786455
1780471467086627081,1780471467.086627007,1780471467,85828574,load_cell,1135,0.005332135728542922,1.5093676606786435
1780471467097134718,1780471467.097134829,1780471467,95877946,load_cell,869,0.00403213572854292,1.1413766606786435
1780471467106673695,1780471467.106673717,1780471467,105867827,load_cell,-19,-6.786427145707985e-05,-0.019210339321356074
1780471467116381609,1780471467.116381645,1780471467,115858029,load_cell,1179,0.005532135728542921,1.5659816606786432
1780471467126624656,1780471467.126624584,1780471467,125854502,load_cell,-6884,-0.03206786427145708,-9.077450339321357
1780471467136887575,1780471467.136887550,1780471467,136048842,load_cell,1135,0.005332135728542922,1.5093676606786435
1780471467146421624,1780471467.146421671,1780471467,145837625,load_cell,2619,0.012232135728542922,3.4625506606786463
1780471467157521133,1780471467.157521248,1780471467,155849875,load_cell,1324,0.006132135728542921,1.7358236606786441
1780471467166206880,1780471467.166206837,1780471467,165828428,load_cell,1871,0.008732135728542922,2.471805660678646
1780471467176424870,1780471467.176424980,1780471467,175836550,load_cell,2454,0.01143213572854292,3.236094660678644
1780471467186466882,1780471467.186466932,1780471467,185840256,load_cell,2428,0.01133213572854292,3.207787660678642
1780471467197148800,1780471467.197148800,1780471467,195849018,load_cell,2822,0.01313213572854292,3.717313660678643
1780471467206380496,1780471467.206380606,1780471467,205844628,load_cell,2548,0.011832135728542921,3.3493226606786433
1780471467216606454,1780471467.216606379,1780471467,215832909,load_cell,2587,0.01203213572854292,3.405936660678643
1780471467226776537,1780471467.226776600,1780471467,225851656,load_cell,1280,0.005932135728542922,1.6792096606786444
1780471467236288473,1780471467.236288548,1780471467,235849793,load_cell,1193,0.005532135728542921,1.5659816606786432
1780471467246473372,1780471467.246473312,1780471467,246014692,load_cell,944,0.004432135728542921,1.254604660678643
1780471467256459413,1780471467.256459475,1780471467,255848949,load_cell,-4966,-0.023167864271457082,-6.558127339321356
1780471467266304967,1780471467.266304970,1780471467,265879920,load_cell,-3833,-0.017867864271457076,-5.057856339321354
1780471467276368356,1780471467.276368380,1780471467,275857129,load_cell,-3214,-0.014967864271457076,-4.236953339321355
1780471467286217974,1780471467.286217928,1780471467,285849058,load_cell,258,0.0012321357285429227,0.3487806606786439
1780471467296722827,1780471467.296722889,1780471467,295861564,load_cell,1091,0.0050321357285429205,1.424446660678644
1780471467306877165,1780471467.306877136,1780471467,305852982,load_cell,458,0.0021321357285429207,0.6035436606786444
1780471467316579991,1780471467.316580057,1780471467,315847503,load_cell,2850,0.01323213572854292,3.745620660678645
1780471467326213693,1780471467.326213598,1780471467,325856329,load_cell,3049,0.01423213572854292,4.0286906606786435
1780471467336219671,1780471467.336219788,1780471467,335846403,load_cell,5104,0.023732135728542922,6.717855660678643
1780471467346516768,1780471467.346516848,1780471467,345872702,load_cell,5535,0.02573213572854292,7.283995660678643
